{"type":"FeatureCollection","features":[{"type":"Feature","properties":{"1950":"637,392","1960":"741,324","1970":"717,099","1980":"636,212","1990":"628,300","2000":"597,049","2010":"594,833","City":"Milwaukee"},"geometry":{"type":"Point","coordinates":[-87.948334,43.063146]}},{"type":"Feature","properties":{"1950":"831,937","1960":"1,055,457","1970":"1,311,978","1980":"1,298,941","1990":"1,229,026","2000":"1,210,223","2010":"1,353,186","City":"Munich"},"geometry":{"type":"Point","coordinates":[11.544467,48.152126]}},{"type":"Feature","properties":{"1950":"325,218","1960":"762,418","1970":"1,413,528","1980":"2,572,218","1990":"4,764,093","2000":"7,280,706","2010":"10,441,182","City":"Lagos"},"geometry":{"type":"Point","coordinates":[3.39583,6.45306]}},{"type":"Feature","properties":{"1950":"1,321,647","1960":"1,979,927","1970":"2,646,661","1980":"3,720,640","1990":"4,615,919","2000":"5,658,363","2010":"6,269,330","City":"Santiago"},"geometry":{"type":"Point","coordinates":[-70.630133,-33.428532]}},{"type":"Feature","properties":{"1950":"63,000","1960":"179,000","1970":"553,000","1980":"891,000","1990":"1,392,000","2000":"1,300,000","2010":"1,994,000","City":"Kuwait City"},"geometry":{"type":"Point","coordinates":[47.97833,29.36972]}},{"type":"Feature","properties":{"1950":"441,718","1960":"602,999","1970":"904,663","1980":"1,134,779","1990":"1,381,223","2000":"1,611,411","2010":"2,008,737","City":"Brisbane"},"geometry":{"type":"Point","coordinates":[153.026164,-27.469309]}},{"type":"Feature","properties":{"1950":"1,452,000","1960":"2,679,000","1970":"3,915,000","1980":"5,984,000","1990":"8,175,000","2000":"8,390,000","2010":"9,626,000","City":"Jakarta"},"geometry":{"type":"Point","coordinates":[106.762383,-6.092573]}},{"type":"Feature","properties":{"1950":"69,951","1960":"179,063","1970":"297,615","1980":"422,651","1990":"588,491","2000":"765,122","2010":"1,137,840","City":"Ulaanbaatar"},"geometry":{"type":"Point","coordinates":[106.88324,47.90771]}},{"type":"Feature","properties":{"1950":"1,021,031","1960":"2,361,196","1970":"5,311,569","1980":"8,244,352","1990":"10,517,565","2000":"9,879,073","2010":"9,796,045","City":"Seoul"},"geometry":{"type":"Point","coordinates":[127.009676,37.539619]}},{"type":"Feature","properties":{"1950":"83,844","1960":"162,126","1970":"356,785","1980":"854,913","1990":"1,473,870","2000":"2,272,483","2010":"3,869,675","City":"Dar Es Salaam"},"geometry":{"type":"Point","coordinates":[39.274749,-6.81258]}},{"type":"Feature","properties":{"1950":"1,065,888","1960":"1,755,920","1970":"2,980,371","1980":"4,437,754","1990":"5,836,537","2000":"7,293,549","2010":"8,919,759","City":"Lima"},"geometry":{"type":"Point","coordinates":[-77.02824,-12.04318]}},{"type":"Feature","properties":{"1950":"133,278","1960":"247,495","1970":"459,514","1980":"700,592","1990":"1,134,271","2000":"1,693,468","2010":"2,140,638","City":"Port-au-Prince"},"geometry":{"type":"Point","coordinates":[-72.335,18.53917]}},{"type":"Feature","properties":{"1950":"319,177","1960":"440,164","1970":"634,880","1980":"773,779","1990":"869,681","2000":"1,110,294","2010":"1,335,187","City":"Auckland"},"geometry":{"type":"Point","coordinates":[174.672404,-36.905451]}},{"type":"Feature","properties":{"1950":"142,652","1960":"247,978","1970":"416,547","1980":"616,327","1990":"1,047,467","2000":"1,379,266","2010":"1,474,557","City":"Harare"},"geometry":{"type":"Point","coordinates":[31.05337,-17.82772]}},{"type":"Feature","properties":{"1950":"193,850","1960":"235,663","1970":"317,055","1980":"334,786","1990":"421,528","2000":"469,089","2010":"537,223","City":"Geneva"},"geometry":{"type":"Point","coordinates":[6.131497,46.191574]}}]}